stop_id,stop_code,stop_name,stop_desc,stop_lat,stop_lon,zone_id,wheelchair_boarding
1278_16,31041z,Corso Bettini Liceo,,45.896138,11.043343,10101,1
1279_16,31041x,Corso Bettini Liceo,,45.895066,11.043410,10101,1
1280_16,31051x,Corso Bettini "Mart",,45.893031,11.043616,10101,1
1281_16,31051z,Corso Bettini "Mart",,45.892816,11.043904,10101,2
1282_16,30141n,Corso Rosmini Via Savioli,,45.890972,11.038504,10121,1
1283_16,30111-,Corso Rosmini Monumento,,45.890870,11.042857,10101,1
1284_16,10121,Corso Rosmini Posta,,45.890973,11.041257,10121,1
1285_16,30141s,Corso Rosmini Via Savioli,,45.890883,11.038010,10101,1
1286_16,31071z,Corso Verona Ospedale,,45.882343,11.040385,10121,1
1287_16,31061x,Lizzanella Corso Verona,,45.875566,11.034071,10121,2
1289_16,31071x,Corso Verona Ospedale,,45.881066,11.039620,10121,2
1290_16,31711x,Via Vicenza Via Cartiera,,45.887155,11.050411,10101,2
1291_16,31711z,Via Vicenza Via Cartiera,,45.887187,11.051160,10101,2
1292_16,37011x,Chiusole,,45.925520,11.052173,17031,2
1293_16,37011z,Chiusole,,45.925390,11.053592,17031,2
1295_16,32561c,Costa Capolinea,,45.884218,11.072911,10101,2
1296_16,32651x,Sp.2 Loc. Beccache',,45.882087,11.071643,10101,2
1297_16,32051z,Marco Via Pinera,,45.847835,11.011731,10101,2
1298_16,32021z,Marco Centro,,45.844005,11.008643,10101,2
1299_16,32031z,Marco Chiesa,,45.841765,11.007816,10101,1
1300_16,32041z,Marco Via Alla Ghiffa,,45.840118,11.009468,10101,2
1301_16,32011c,Marco,,45.836852,11.011188,10101,
1302_16,32041x,Marco Via Alla Ghiffa,,45.840222,11.009563,10101,2
1303_16,32031x,Marco Chiesa,,45.841469,11.008281,10101,2
1304_16,32021x,Marco Centro,,45.843767,11.008609,10101,1
1305_16,32051x,Marco Via Pinera,,45.847568,11.011566,10101,2
1307_16,35121x,Nogaredo Via Zuccate,,45.912139,11.025272,15091,2
1308_16,35121z,Nogaredo Via Zuccate,,45.912212,11.025262,15091,2
1309_16,36021z,Nomi "Casa di Riposo",,45.927892,11.076793,16011,2
1310_16,16011,Nomi Piazza Springa,,45.928891,11.072085,16011,2
1311_16,30161-,Piazzale Orsi Stazione Fs,,45.890189,11.034270,10121,1
1312_16,30191-,Stazione Fs,,45.890593,11.034104,10101,
1313_16,31151e,Piazzale S.Giorgio Est,,45.895510,11.029591,10121,
1314_16,31151o,Piazzale S.Giorgio Ovest,,45.895699,11.028855,10121,
1315_16,31101z,Piazzale S.Maria Ospedale,,45.883438,11.040503,10121,2
1316_16,31101x,Piazzale S.Maria Ospedale,,45.883616,11.040937,10121,1
1318_16,31131x,Piazza Manifattura,,45.883923,11.021153,10101,
1319_16,31131z,Piazza Manifattura,,45.883838,11.020771,10101,
1320_16,30511-,Piazza Battisti,,45.890071,11.043906,10121,
1322_16,31141x,Piazza Podestà,,45.886586,11.045629,10121,
1323_16,30521-,Piazza S.Marco,,45.888708,11.045294,10101,
1324_16,38011x,Piazzo,,45.922256,11.033881,18041,1
1325_16,38011z,Piazzo,,45.922219,11.033932,18041,2
1326_16,37021x,Pomarolo Chiesa,,45.926469,11.045297,17031,2
1327_16,37021z,Pomarolo Chiesa,,45.926386,11.045658,17031,2
1328_16,17031,Pomarolo Via Degasperi,,45.926343,11.042440,17031,2
1329_16,37031z,Pomarolo Via Degasperi,,45.926217,11.042436,17031,2
1331_16,31171x,S.Ilario Sav,,45.908213,11.040563,10101,2
1332_16,31181-,S.Ilario Via Monti,,45.910990,11.040806,10101,2
1333_16,31171z,S.Ilario Sav,,45.908078,11.040657,10101,2
1334_16,32651z,Sp.2 Loc. Beccache',,45.882063,11.071733,10101,2
1335_16,32731z,Viale Dei Colli "Distributore",,45.887518,11.059253,10101,2
1337_16,32731x,Viale Dei Colli "Distributore",,45.887439,11.059541,10101,2
1338_16,32661x,Sp.2 Fr. Campolongo,,45.886995,11.063902,10101,1
1339_16,32671x,Sp.2 Noriglio,,45.884263,11.070323,10101,2
1340_16,32671z,Sp.2 Noriglio,,45.884371,11.069842,10101,2
1341_16,32661z,Sp.2 Fr. Campolongo,,45.886988,11.063994,10101,1
1342_16,32691x,Noriglio Via Dei Cimbri,,45.884696,11.069650,10101,2
1343_16,31201x,Lizzana Cristo,,45.866956,11.030832,10101,2
1347_16,31201z,Lizzana Cristo,,45.867259,11.030840,10101,1
1348_16,31211z,Lizzana Scuole Medie,,45.870236,11.031119,10121,1
1349_16,31211x,Lizzana Scuole Medie,,45.870623,11.031133,10121,1
1350_16,31221z,Lizzanella Ss.12,,45.875522,11.031822,10101,2
1351_16,31221x,Lizzanella Ss.12,,45.875686,11.032030,10101,2
1357_16,31281z,Via Benacense Via Fiume,,45.882042,11.038360,10121,1
1358_16,31281x,Via Benacense Via Fiume,,45.881993,11.038495,10121,1
1359_16,31261z,Via Benacense Parco Ferrari,,45.878072,11.033318,10101,1
1360_16,31271z,Via Benacense Scuole Dante,,45.879617,11.035043,10121,1
1361_16,31271x,Via Benacense Scuole Dante,,45.879709,11.035212,10121,1
1362_16,31261x,Via Benacense Parco Ferrari,,45.877921,11.033242,10101,1
1363_16,31311z,Via Cavour Via Riva,,45.887219,11.034767,10121,1
1364_16,31301x,Via Cavour,,45.887163,11.038518,10101,
1365_16,31311x,Via Cavour Via Riva,,45.887293,11.034164,10121,1
1366_16,31301z,Via Cavour,,45.887090,11.038240,10101,
1367_16,30171-,Via Cesari Stazione Fs,,45.890279,11.035658,10121,2
1369_16,31351z,Via Dante Borgo S.Caterina,,45.889592,11.040460,10121,2
1370_16,31361x,Via Dante Mon. All'alpino,,45.886729,11.040387,10121,2
1371_16,31361z,Via Dante Mon. All'alpino,,45.886067,11.040305,10121,2
1372_16,32751x,Viale Dei Colli Sc. Alberghiera,,45.891067,11.047189,10101,2
1373_16,32751z,Viale Dei Colli Sc. Alberghiera,,45.891046,11.047336,10101,2
1374_16,32741z,Viale Dei Colli S.Biagio,,45.890313,11.050118,10101,2
1375_16,32741x,Viale Dei Colli S.Biagio,,45.890265,11.050139,10101,2
1376_16,31401x,Via Driopozzo Bivio Solatrix,,45.899638,11.044451,10121,2
1378_16,31461-,Via Lungo Leno Destro,,45.884855,11.038586,10121,
1380_16,31431-,Via Giovannini,,45.907026,11.043154,10101,
1381_16,31491z,Via Magazol Via Cimarosa,,45.899835,11.039968,10121,2
1383_16,31501x,Via Manzoni A.S.M.,,45.893369,11.036067,10121,2
1384_16,31501z,Via Manzoni A.S.M.,,45.893369,11.036193,10121,2
1385_16,31241x,Via Balista,,45.894967,11.032631,10101,
1386_16,31241z,Via Balista,,45.894961,11.032738,10101,
1388_16,31511z,Via Manzoni Via Paoli,,45.892237,11.039370,10121,1
1389_16,31531x,Via Paoli Piazza 25 Aprile,,45.893116,11.040065,10121,1
1391_16,31533-,Via Paoli,,45.891431,11.040037,10101,
1392_16,31571x,Via Pasubio Via Unione,,45.887465,11.024942,10101,1
1393_16,31561x,Via Pasubio Viale Vittoria,,45.887211,11.030668,10101,1
1394_16,31561z,Via Pasubio Viale Vittoria,,45.887266,11.030142,10101,2
1395_16,31571z,Via Pasubio Via Unione,,45.887505,11.024737,10101,2
1397_16,31231z,Via A Prato,,45.893666,11.030581,10121,
1398_16,31611x,Via Puccini Via Perosi,,45.903785,11.045042,10121,1
1399_16,31601x,Via Puccini Via Donizetti,,45.901372,11.046220,10121,2
1400_16,31591x,Via Pellico Brione,,45.904569,11.042576,10101,2
1401_16,31641x,Via Saibanti,,45.888163,11.036728,10101,
1402_16,31641z,Via Saibanti,,45.888111,11.036707,10101,
1404_16,30151-,Piazzale Orsi Ist. Veronesi,,45.891328,11.034569,10121,1
1405_16,31421z,Via Tiella,,45.907669,11.043757,10101,
1408_16,31691x,Via Unione Scuole Degasperi,,45.885236,11.023282,10101,2
1409_16,31691z,Via Unione Scuole Degasperi,,45.885564,11.023170,10101,2
1410_16,31721x,Via Zeni "Centro Tecnofin",,45.890465,11.032705,10101,2
1411_16,31721z,Via Zeni "Centro Tecnofin",,45.891013,11.032714,10101,1
1412_16,31761x,Viale Trento Via Magazol,,45.899562,11.042141,10121,1
1413_16,31761z,Viale Trento Via Magazol,,45.899616,11.042207,10121,1
1414_16,31751x,Viale Trento Via Brione,,45.901770,11.041487,10121,1
1415_16,31751z,Viale Trento Via Brione,,45.901722,11.041666,10121,1
1416_16,31771x,Viale Trento Via Salvetti,,45.906610,11.040104,10101,2
1417_16,31771z,Viale Trento Via Salvetti,,45.906689,11.040210,10101,2
1418_16,31801z,Viale Vittoria Via Zotti,,45.885459,11.025871,10101,2
1419_16,31791z,Viale Vittoria Fucine,,45.886441,11.029403,10101,1
1420_16,31801x,Viale Vittoria Via Zotti,,45.885252,11.025383,10101,1
1421_16,31791x,Viale Vittoria Fucine,,45.886286,11.029023,10101,1
1422_16,32221z,Ss.12 "Rovercenter",,45.864490,11.029338,10101,2
1424_16,38031x,Villa Lagarina Via Alpini,,45.914559,11.034087,18041,2
1425_16,38031z,Villa Lagarina Via Alpini,,45.914750,11.033819,18041,2
1426_16,38061x,Villa Lagarina Via Solari,,45.917108,11.028806,18041,1
1427_16,38061z,Villa Lagarina Via Solari,,45.917136,11.028755,18041,2
1429_16,38071z,Villa Lagarina V. Zandonai,,45.912508,11.031747,18041,2
1431_16,31331-,Via Craffonara,,45.886658,11.034356,10101,
1432_16,31521z,Via Monte Corno,,45.893135,11.037613,10121,
1433_16,31541z,Via Parteli,,45.896472,11.036768,10121,
1434_16,31551z,Via Pasqui,,45.899597,11.037398,10121,
1437_16,32351z,Viale Caproni "Sony",,45.865476,11.010393,10101,2
1440_16,32371x,Viale Dell'industria,,45.871736,11.020685,10101,
1442_16,32361x,Viale Del Lavoro "Aticarta",,45.866718,11.023454,10101,2
1443_16,32261x,Viale Del Lavoro "Rovercenter",,45.863613,11.027012,10101,2
1444_16,31631x,Via S.Maria,,45.884661,11.042935,10121,
1445_16,30181-,Via Sighele Stazione Fs,,45.891265,11.035482,10101,1
1446_16,31741x,Via Zotti Via Cevedale,,45.885721,11.025832,10121,1
1447_16,31731x,Via Zotti,,45.886239,11.021005,10101,
1504_16,32311x,Via Fornaci "Texbond",,45.860058,11.005383,10101,2
1685_16,31471-,Via Macello,,45.894308,11.032788,10101,
2213_16,32511z,Bivio Per Senter,,45.881211,11.077472,10101,
2214_16,32511x,Bivio Per Senter,,45.881441,11.077608,10101,
2215_16,35011z,Brancolino,,45.902185,11.020153,15091,2
2216_16,35011x,Brancolino,,45.902219,11.020270,15091,2
2217_16,35021x,Brancolino Sp.90,,45.900719,11.020254,15091,1
2218_16,35021z,Brancolino Sp.90,,45.900853,11.020410,15091,1
2219_16,32531z,Casa Del Falegname,,45.885720,11.076344,10101,
2220_16,32531x,Casa Del Falegname,,45.885630,11.076356,10101,
2221_16,32541z,Casa Nel Bosco,,45.882386,11.076318,10101,
2222_16,32541x,Casa Nel Bosco,,45.882347,11.076349,10101,
2223_16,18511,Castellano Centro,,45.923356,11.007702,18511,2
2224_16,32551z,Cisterna,,45.883094,11.086350,10101,2
2225_16,32551x,Cisterna,,45.883158,11.086399,10101,2
2226_16,33011x,Cornale',,45.881541,11.010793,13041,2
2227_16,33011z,Cornale',,45.881500,11.010729,13041,2
2229_16,33021x,Folaso,,45.887066,11.001261,13041,2
2230_16,33021z,Folaso,,45.887214,11.001313,13041,2
2231_16,33051z,Isera Via Rosina,,45.887566,11.010587,13041,2
2232_16,33051x,Isera Via Rosina,,45.887771,11.010711,13041,2
2233_16,33031z,Isera Cimitero,,45.888588,11.011862,13041,2
2234_16,33031x,Isera Cimitero,,45.888491,11.011704,13041,2
2237_16,33061c,Lenzima,,45.878491,10.992327,13041,
2238_16,33071x,Marano,,45.895859,11.015489,13041,2
2239_16,33071z,Marano,,45.895743,11.015472,13041,2
2240_16,32571z,Maso Mortal,,45.882809,11.079507,10101,2
2241_16,32571x,Maso Mortal,,45.882917,11.079470,10101,2
2242_16,32591c,Moietto,,45.894865,11.086017,10101,
2243_16,34011z,Molina,,45.855439,10.986616,14051,2
2244_16,34011x,Molina,,45.855393,10.986692,14051,2
2245_16,34021z,Mori Bar Centrale,,45.851666,10.978853,14051,2
2246_16,34031x,Mori Piazza Cal di Ponte,,45.851720,10.977892,14051,2
2247_16,34071x,Mori Via Garibaldi,,45.853043,10.975311,14051,1
2248_16,34041x,Mori Piazzale Kennedy,,45.851716,10.979141,14051,1
2249_16,14051,Mori Via Don Sturzo,,45.853419,10.970185,14051,1
2250_16,34061x,Mori Via Filzi,,45.854286,10.972109,14051,1
2253_16,35041x,Noarna,,45.911090,11.012496,15091,2
2254_16,35041z,Noarna,,45.910988,11.012480,15091,2
2255_16,35081z,Nogaredo Municipio,,45.912062,11.023051,15091,2
2256_16,15091,Nogaredo Municipio,,45.911989,11.023088,15091,2
2257_16,35131z,Nogaredo Vignai,,45.910710,11.019922,15091,2
2258_16,35111x,Nogaredo Via Dei Colli,,45.911742,11.021481,15091,2
2260_16,35101x,Nogaredo Scuole Elementari,,45.909320,11.022346,15091,2
2261_16,38051z,Villa Lagarina Via Marconi,,45.915659,11.027760,15091,2
2262_16,38051x,Villa Lagarina Via Marconi,,45.914818,11.027750,15091,2
2265_16,32601z,Noriglio Cassa Rurale,,45.883717,11.069234,10101,2
2266_16,32611x,Noriglio Mon. Ai Caduti,,45.883665,11.070377,10101,2
2267_16,33081c,Patone,,45.902767,11.000423,13041,
2268_16,38571c,Pedersano Capolinea,,45.922625,11.020454,18511,2
2271_16,38581z,Pedersano Centro,,45.918006,11.019786,18511,2
2272_16,38581x,Pedersano Centro,,45.917890,11.019717,18511,2
2273_16,31111x,Piazza Filzi Via Del Porto,,45.884058,11.017995,10101,1
2274_16,34081z,Ravazzone,,45.860012,10.991223,14051,2
2275_16,32211z,Mori Stazione Via Stazione,,45.861992,11.000505,10101,2
2276_16,32211x,Mori Stazione Via Stazione,,45.861835,11.000757,10101,2
2277_16,33091x,Reviano,,45.891169,11.007340,13041,2
2278_16,33091z,Reviano,,45.891587,11.007136,13041,2
2281_16,31161x,S.Ilario Iti,,45.910932,11.042030,10101,2
2282_16,31161z,S.Ilario Iti,,45.909897,11.041744,10101,2
2283_16,31191x,S.Ilario Via Stroperi,,45.912441,11.043809,10101,1
2284_16,31191z,S.Ilario Via Stroperi,,45.912525,11.044027,10101,1
2285_16,38601z,Sp.20 S.Sisinio,,45.924877,11.021092,18511,2
2286_16,38611z,Sp.20 Zisi,,45.931009,11.022102,18511,2
2287_16,38611x,Sp.20 Zisi,,45.931416,11.022116,18511,2
2288_16,38601x,Sp.20 S.Sisinio,,45.924981,11.021093,18511,2
2289_16,32251x,Ss.240 "Millennium Sud",,45.868678,11.014119,10101,2
2291_16,32251z,Ss.240 "Millennium Sud",,45.868802,11.014170,10101,2
2292_16,34081x,Ravazzone,,45.858843,10.990640,14051,2
2293_16,32241z,Ss.240 "Millennium Nord",,45.870320,11.016768,10101,2
2294_16,32241x,Ss.240 "Millennium Nord",,45.870588,11.017358,10101,2
2295_16,32621x,Saltaria,,45.895428,11.067237,10101,2
2296_16,32621z,Saltaria,,45.895205,11.067408,10101,2
2297_16,34091c,Sano,,45.846341,10.951531,14051,
2298_16,35151z,Sasso,,45.904055,11.013671,15091,2
2299_16,35151x,Sasso,,45.904012,11.013554,15091,2
2300_16,32631-,Senter,,45.877509,11.089407,10101,
2301_16,34111x,Tierno Via Cooperazione,,45.846039,10.979227,14051,1
2302_16,34121x,Tierno Via Battisti,,45.847813,10.977934,14051,2
2303_16,34131x,Tierno Via Terra Nera,,45.847758,10.983715,14051,1
2304_16,32681x,Toldi,,45.897923,11.061752,10101,
2307_16,31341z,Via D.Chiesa,,45.886200,11.019384,10101,
2309_16,31391z,Via Della Libertà,,45.884868,11.017591,10101,
2310_16,31401z,Via Driopozzo Bivio Solatrix,,45.898720,11.044443,10121,2
2311_16,31411x,Via Fedrigotti Chiesa,,45.884259,11.020421,10101,2
2312_16,32701x,Noriglio Via Fontani,,45.884341,11.068686,10101,2
2318_16,31451x,Via Lagarina,,45.910398,11.039909,10101,
2319_16,31481x,Via Magazol Viale Trento,,45.898988,11.042024,10121,1
2321_16,31451z,Via Lagarina,,45.910879,11.039811,10101,
2322_16,31601z,Via Puccini Via Donizetti,,45.901706,11.046261,10121,1
2323_16,31611z,Via Puccini Via Perosi,,45.904524,11.044655,10121,1
2325_16,32721x,Noriglio Via Valteri,,45.886140,11.065260,10101,2
2329_16,31701x,Via Vicenza Via Asiago,,45.885561,11.059525,10101,2
2330_16,32331z,Viale Caproni "Chizzola",,45.868365,11.022470,10101,2
2331_16,32361z,Viale Del Lavoro "Aticarta",,45.866295,11.023867,10101,2
2332_16,32371z,Viale Dell'industria,,45.871749,11.020845,10101,
2333_16,18041,Villa Lagarina Via Magrè,,45.917709,11.033243,18041,1
2334_16,38041x,Villa Lagarina Via Magrè,,45.917520,11.033502,18041,1
2335_16,38021z,Villa Lagarina V.Segantini,,45.916175,11.034150,18041,2
2336_16,38021x,Villa Lagarina V.Segantini,,45.916240,11.034113,18041,1
2337_16,39041z,Volano Ss.12,,45.917871,11.064024,19011,2
2338_16,39041x,Volano Ss.12,,45.917904,11.063866,19011,2
2339_16,19011,Volano Via Roma,,45.917155,11.069927,19011,1
2340_16,39021x,Volano Des Tor,,45.917486,11.057512,19011,2
2341_16,39031z,Volano Via Europa,,45.916494,11.057177,19011,2
2342_16,32771x,Zaffoni,,45.891310,11.065552,10101,2
2343_16,32771z,Zaffoni,,45.891281,11.065714,10101,2
2349_16,35141z,S.Lucia Chiesa,,45.914954,11.025570,15091,2
2354_16,31581z,Via All'adige,,45.888337,11.019067,10101,
2355_16,37061z,Pomarolo Via Rossaro,,45.925820,11.047490,17031,2
2356_16,37051x,Pomarolo Via Del Pionte,,45.925107,11.048121,17031,2
2359_16,35031x,Molini,,45.913939,11.021211,15091,2
2360_16,38541c,Lago di Cei Bellaria,,45.957515,11.032165,18511,2
2361_16,38531x,Lago di Cei,,45.951091,11.023207,18511,2
2362_16,38551x,Lago di Cei Albergo,,45.948219,11.015835,18511,2
2363_16,38591x,Sp.20 Maso Tiaf,,45.936511,11.008597,18511,2
2364_16,38621x,Sp.20 Bivio Per Bordala,,45.930910,11.007172,18511,2
2365_16,38511x,Castellano Centro,,45.923278,11.007616,18511,2
2367_16,38621z,Sp.20 Bivio Per Bordala,,45.930864,11.007233,18511,2
2368_16,38591z,Sp.20 Maso Tiaf,,45.935890,11.008594,18511,2
2369_16,38561z,Lago di Cei Capitello,,45.947490,11.014818,18511,2
2370_16,38531z,Lago di Cei,,45.951042,11.023398,18511,2
2372_16,35031z,Molini,,45.914136,11.021270,15091,2
2391_16,31621-,Via Rovigo,,45.880485,11.038140,10121,
2394_16,31121-,Piazza Guella,,45.867441,11.031932,10121,
2395_16,31091-,Largo S.Floriano,,45.866422,11.032697,10121,
2397_16,31291-,Via Cornacalda,,45.866722,11.034907,10121,
2398_16,31381-,Via Della Cisterna,,45.867981,11.034820,10121,
2421_16,31231x,Via A Prato,,45.893565,11.030778,10121,
2474_16,32711z,Via Vallunga Bivio M. Pipel,,45.895243,11.052060,10101,2
2475_16,32581z,Maso Valduga,,45.899926,11.054673,10101,2
2476_16,32521c,Bosco Della Citta',,45.901613,11.055394,10101,
2477_16,32581x,Maso Valduga,,45.899767,11.054287,10101,2
2478_16,32711x,Via Vallunga Bivio M. Pipel,,45.895243,11.051973,10101,2
2481_16,32761z,Viale Dei Colli Via Vallunga,,45.891091,11.049783,10101,2
2482_16,32761x,Viale Dei Colli Via Vallunga,,45.891342,11.049818,10101,2
2494_16,31081x,Corso Verona Via Cainelli,,45.877270,11.035963,10121,2
2504_16,34046x,Mori Via Del Garda,,45.851519,10.972511,14051,2
2508_16,32681z,Toldi,,45.897970,11.061612,10101,
2509_16,32561x,Costa,,45.884401,11.072918,10101,
2510_16,32641z,Sp.2 Bivio Per Cisterna,,45.881281,11.075365,10101,2
2511_16,33041o,Isera P.Zza S.Vincenzo-O.,,45.885459,11.009157,13041,2
2514_16,34101x,Ss.240 Ponte Sull'adige,,45.863191,10.997289,14051,2
2515_16,34101z,Ss.240 Ponte Sull'adige,,45.863235,10.997355,14051,2
2540_16,32341o,Viale Caproni "Luxottica",,45.864859,11.017764,10101,2
2542_16,32291x,Via di Vittorio,,45.863141,11.020959,10101,
2543_16,38071x,Villa Lagarina V. Zandonai,,45.912479,11.031904,18041,2
2551_16,34046z,Mori Via Del Garda,,45.851921,10.972036,14051,2
2660_16,33086x,Patone Gera,,45.897940,11.002067,13041,2
2662_16,33086z,Patone Gera,,45.897942,11.002101,13041,2
2676_16,31326-,Via Cittadella Via Mozart,,45.901288,11.040122,10121,1
2686_16,33041e,Isera P.Zza S.Vincenzo-E.,,45.885396,11.009290,13041,2
2699_16,32221x,Ss.12 "Rovercenter",,45.864206,11.029050,10101,2
2706_16,31586o,Via Pedroni,,45.892216,11.033020,10121,
2707_16,31692o,Via Unione "Residenza Eos",,45.893295,11.027254,10121,2
2710_16,31694o,Via Unione Scuole Filzi,,45.888721,11.024219,10121,1
2746_16,33066z,Lenzima Via Della Vittoria,via della Vittoria 13,45.877392,10.991755,13041,2
2747_16,33066x,Lenzima Via Della Vittoria,via della Vittoria fronte civ. 11,45.877342,10.991623,13041,2
2757_16,32611z,Noriglio Mon. Ai Caduti,,45.884029,11.070128,10101,2
2758_16,31811z,Viale Vittoria Scuole Degasperi,,45.884931,11.023892,10101,1
2760_16,37101-,Savignano,,45.938008,11.056056,17031,
2761_16,35141x,S.Lucia Chiesa,,45.914889,11.025888,15091,2
2768_16,31694e,Via Unione Scuole Filzi,,45.888575,11.024197,10101,2
2770_16,31329s,Via Comel,,45.904014,11.042310,10101,
2775_16,31726x,Via Zigherane,,45.879247,11.023765,10101,
2776_16,31726z,Via Zigherane,,45.879590,11.023310,10101,2
2777_16,31736c,Baldresca,,45.880129,11.028545,10101,
2800_16,38571x,Pedersano,,45.922564,11.020236,18511,
2802_16,38091x,Villa Lagar. "Bocciodromo",,45.920748,11.032004,18041,2
2803_16,38091z,Villa Lagar. "Bocciodromo",,45.920286,11.031888,18041,1
2804_16,38081z,Villa Lagarina "Al Ponte",,45.913238,11.037377,18041,2
2805_16,38081x,Villa Lagarina "Al Ponte",,45.913174,11.037349,18041,2
2806_16,32236x,Ss.240 "Alla Staffa",,45.872760,11.024323,10101,2
2812_16,38526x,Castellano Don Zanolli,,45.926062,11.005714,18511,2
2816_16,31716z,Via Zandonai,,45.886680,11.020121,10101,
2822_16,34061E,Mori Via Filzi,,45.854392,10.972143,14051,2
2823_16,34051E,Mori Via Don Sturzo,,45.853340,10.970030,14051,2
2824_16,34141x,Mori Via Terra Nera,,45.850031,10.981009,14051,2
2825_16,31581x,Via All'adige,,45.888336,11.018627,10101,
2827_16,32706z,Via Monte Pipel,,45.895096,11.057074,10101,
2831_16,31246z,Via Balista Ist. Veronesi,,45.896064,11.030964,10101,2
2832_16,31811x,Viale Vittoria Scuole Degasperi,,45.884804,11.023960,10101,1
2835_16,16501,Calliano Via Marcolini,,45.931773,11.092114,16501,2
2836_16,36501z,Calliano Via Marcolini,,45.931764,11.092775,16501,2
2837_16,39051z,Volano Via Delle Ancone,,45.917819,11.076406,19011,2
2838_16,39061z,Ss.12 Fornaci,,45.919443,11.085327,19011,2
2839_16,39011z,Volano Via Roma,,45.917298,11.070050,19011,1
2840_16,36001n,Nomi Cantina Sociale,,45.928339,11.074610,16011,2
2841_16,35116z,Nogaredo Via Verdi,,45.911618,11.024560,15091,2
2843_16,35161x,Sp.20 Bivio Noarna,,45.915825,11.016559,15091,2
2844_16,35161z,Sp.20 Bivio Noarna,,45.915880,11.016803,15091,2
2845_16,31226c,Via 13 Settembre,,45.908302,11.041664,10121,
2848_16,32801c,Campana Dei Caduti,,45.874381,11.040911,10101,
2849_16,32091x,Marco Parco Ex De Bellat,,45.843722,11.007151,10101,2
2850_16,32091z,Marco Parco Ex De Bellat,,45.843535,11.007471,10101,2
2851_16,32081x,Marco Via S.Romedio,,45.845955,11.004526,10101,2
2852_16,32081z,Marco Via S.Romedio,,45.847437,11.003378,10101,2
2853_16,32216x,Mori Stazione,,45.860603,11.001714,10101,2
2854_16,32216z,Mori Stazione,,45.860969,11.001673,10101,2
2855_16,31651n,Via Salvetti,,45.905949,11.042877,10101,
2856_16,36511z,Ss.12 Castel Pietra,,45.921721,11.091309,16501,2
2857_16,36511x,Ss.12 Castel Pietra,,45.922938,11.092225,16501,2
2858_16,36521x,Ss.12 Campagnole,,45.928854,11.093011,16501,2
2859_16,36521z,Ss.12 Campagnole,,45.928851,11.093153,16501,2
2861_16,37501z,Porte di Trambileno,,45.883348,11.051600,10101,2
2862_16,37501x,Porte di Trambileno,,45.883530,11.052029,10101,2
2863_16,32811z,Viale Schio,,45.883599,11.043713,10101,
2864_16,32811x,Viale Schio,,45.883690,11.043651,10101,
2865_16,32821z,Viale Zugna,,45.884470,11.047001,10101,
2866_16,32821x,Viale Zugna,,45.884452,11.047161,10101,
2867_16,32831z,Viale Zugna 48,,45.884382,11.049309,10101,
2868_16,32831x,Viale Zugna 48,,45.884347,11.049429,10101,
2869_16,31481z,Via Magazol Viale Trento,,45.899299,11.041955,10121,1
2870_16,32236z,Ss.240 "Alla Staffa",,45.872820,11.024167,10101,2
2873_16,33001-,Casette,,45.880722,11.017851,13041,
2874_16,32311z,Via Fornaci "Texbond",,45.859392,11.005003,10101,2
2875_16,32316x,Via Fornaci "Dana",,45.854746,11.004438,10101,2
2876_16,32316z,Via Fornaci "Dana",,45.854456,11.004106,10101,2
2877_16,32256x,Ss.240 "Meb",,45.867858,11.011826,10101,2
2878_16,32871c,Ossario Castel Dante,,45.871891,11.035445,10121,
2884_16,31256z,Via Bellini,,45.899265,11.044679,10101,
2886_16,31701z,Via Vicenza Via Asiago,,45.885484,11.059421,10101,2
2887_16,31086x,Genovesa,,45.882907,11.062550,10101,2
2888_16,31086z,Genovesa,,45.882458,11.062553,10101,2
2889_16,32703x,Noriglio Via Jacob,,45.883853,11.067449,10101,2
2890_16,32703z,Noriglio Via Jacob,,45.883773,11.067597,10101,2
2891_16,32616x,Noriglio Parco Alle Pozze,,45.884317,11.065743,10101,2
2892_16,35131x,Nogaredo Vignai,,45.910279,11.019418,15091,2
2895_16,32556c,Cisterna Capolinea,,45.883114,11.087310,10101,2
2896_16,32606-,Noriglio Scuole Elementari,,45.881946,11.068808,10101,2
2897_16,32218x,Sp.23 "Nero Cubo",,45.855421,11.002179,10101,2
2898_16,32816x,Viale Schio S.Maria,,45.884693,11.043501,10101,2
2899_16,31692e,Via Unione "Residenza Eos",,45.893502,11.027541,10101,2
2900_16,32596z,Monte Ghello,,45.887462,11.066109,10101,2
2901_16,32596x,Monte Ghello,,45.887015,11.066337,10101,2
2902_16,32331x,Viale Caproni "Chizzola",,45.868310,11.021991,10101,2
2904_16,38101e,Villa Lagarina "Poste",,45.914403,11.033162,18041,2
2905_16,38526z,Castellano Don Zanolli,,45.926140,11.005759,18511,2
2906_16,36541z,Calliano Ss.12,,45.934315,11.096017,16501,2
2907_16,36541x,Calliano Ss.12,,45.934334,11.095870,16501,2
2908_16,36531x,Calliano Cimitero,,45.936981,11.098860,16501,2
2909_16,36601x,Besenello,,45.941818,11.109937,16501,2
2910_16,36611x,Besenello Nord,,45.945821,11.106088,16501,2
2911_16,36621x,Besenello Sud,,45.936872,11.110211,16501,2
2914_16,32616z,Noriglio Parco Alle Pozze,,45.884247,11.065179,10101,2
2915_16,32271x,Via Dell'artigiano,,45.864405,11.017806,10101,
2919_16,39071z,Volano Via Spiazze,,45.915721,11.051424,19011,2
2922_16,32726z,Viale Dei Colli Bertolda,,45.888345,11.051602,10101,2
2926_16,31001z,Borgo S.Caterina,,45.889827,11.039443,10121,
2928_16,37511x,Porte Chiesa,,45.883422,11.053319,10101,2
2929_16,37521x,Porte Via Al Brentegam,,45.881067,11.053138,10101,2
2930_16,37531x,Porte Via Miravalle,,45.879937,11.047141,10101,2
2931_16,37541x,Dosso,,45.881357,11.054807,10101,2
2932_16,37511z,Porte Chiesa,,45.883185,11.053713,10101,2
2933_16,37521z,Porte Via Al Brentegam,,45.880931,11.052683,10101,2
2934_16,37531z,Porte Via Miravalle,,45.879916,11.046859,10101,2
2935_16,37541z,Dosso,,45.881524,11.054598,10101,2
2936_16,37551z,Sp.89 Maso Brentegam,,45.880439,11.050882,10101,2
2937_16,32321x,Via Fornaci Via Pineta,,45.864979,11.006182,10101,2
2938_16,32321z,Via Fornaci Via Pineta,,45.864770,11.005451,10101,2
2962_16,31316x,Via Brigata Mantova,,45.868215,11.036161,10121,
2963_16,31316z,Via Brigata Mantova,,45.868386,11.036301,10121,
2964_16,31386-,Via Cipressi,,45.870184,11.032805,10121,
2965_16,31821z,Stadio Quercia,,45.901209,11.036378,10121,
2966_16,31831-,Via Tonetti,,45.902850,11.037786,10121,
2968_16,37071z,Pomarolo S.Antonio,,45.933993,11.047844,17031,2
2969_16,37071x,Pomarolo S.Antonio,,45.933955,11.047819,17031,2
2979_16,31491x,Via Magazol Via Cimarosa,,45.899889,11.039718,10121,2
2981_16,33046z,Isera Scuole Elementari,,45.882862,11.008239,13041,2
2982_16,32261z,Viale Del Lavoro "Rovercenter",,45.863835,11.026975,10101,2
2983_16,31551x,Via Pasqui,,45.899670,11.037306,10121,
2984_16,31541x,Via Parteli,,45.896553,11.036620,10121,
2986_16,31321z,Via Circonvallazione,,45.883391,11.038630,10121,
2987_16,31821x,Stadio Quercia,,45.901130,11.036179,01096,
2988_16,32101x,Marco Nord,,45.849547,11.012708,10101,2
2989_16,32101z,Marco Nord,,45.849668,11.012629,10101,2
2992_16,32246x,Via Del Garda Via Porte Rosse,,45.872836,11.028890,10101,2
2993_16,32246z,Via Del Garda Via Porte Rosse,,45.872891,11.028586,10101,2
2994_16,31011x,Clinica Solatrix,,45.897990,11.045512,10101,
2996_16,31686o,Via Unione Via Zotti,,45.886361,11.023197,10121,2
2998_16,31666-,Via Campagnole,,45.889292,11.037028,10121,
2999_16,31111z,Piazza Filzi Via Del Porto,,45.883944,11.018140,10101,2
3001_16,31616z,Via Perosi,,45.904236,11.044054,10101,
3002_16,38111-,Villa Lagarina Sc.Medie,,45.917932,11.031627,18041,2
3003_16,32881x,Strada Degli Artiglieri,,45.869985,11.036450,10121,
3004_16,38506c,Castellano Don Zan. Park,,45.926214,11.007337,18511,2
3005_16,30196-,Stazione Fs,,45.891786,11.034255,10101,
3006_16,31266z,Via Benacense Scuole Ex Edili,,45.880053,11.035461,10121,2
3007_16,33036x,Isera Asilo,,45.884265,11.008314,13041,2
3008_16,31146x,Via Setaioli,,45.887256,11.041550,10121,
3009_16,39081c,Volano Casa di Riposo,,45.920407,11.066981,19011,2
3010_16,35126z,Nogaredo Via S.Biagio,,45.911887,11.025335,15091,2
3011_16,32736z,Viale Dei Colli Campolongo,,45.887924,11.057295,10101,2
3012_16,32736x,Viale Dei Colli Campolongo,,45.887949,11.057573,10101,2
